var jsonData = [
  {
    "latitude": 35.887238,
    "longitude": 128.585070,
    "name": "대구일중학교",
    "website": "https://tgil.dge.ms.kr",
    "events": [
      "개학식: 8/21",
      "중간고사: 9/26~9/27 | 2,3학년",
      "기말고사: 11/1~11/3 | 3학년",
      "기말고사: 11/29~12/1 | 2학년",
      "종업/졸업식: 24.2/6 (겨울방학: 12/30~24.2/1)"
    ]
  },
  {
    "latitude": 35.880818,
    "longitude": 128.598612,
    "name": "경명여자중학교",
    "website": "https://kmschool.dge.ms.kr",
    "events": [
      "개학식: 7/27",
      "중간고사: 9/21~9/22 | 2,3학년",
      "기말고사: 10/31~11/2 | 3학년",
      "기말고사: 11/27~11/29 | 2학년",
      "종업/졸업식: 12/15"
    ]
  },
  {
    "latitude": 35.881453,
    "longitude": 128.576243,
    "name": "경일중학교",
    "website": "https://e-kyungil.dge.ms.kr",
    "events": [
      "개학식: 8/16",
      "중간고사: 9/25~9/26 | 2,3학년",
      "기말고사: 11/1~11/3 | 3학년",
      "기말고사: 12/6~12/8 | 2학년",
      "종업/졸업식: 2/1 (겨울방학: 12/30~24.1/28)"
    ]
  },
  {
    "latitude": 35.889879,
    "longitude": 128.588891,
    "name": "침산중학교",
    "website": "https://chimsan.dge.ms.kr",
    "events": [
      "개학식: 8/18",
      "중간고사: 9/26~9/27 | 2,3학년",
      "기말고사: 11/1~11/3 | 3학년",
      "기말고사: 11/29~12/1 | 2학년",
      "종업/졸업식: 2/7 (겨울방학: 12/30~24.1/31)"
    ]
  },
  {
    "latitude": 35.858528,
    "longitude": 128.584136,
    "name": "대구경구중학교",
    "website": "https://gyeonggu.dge.ms.kr",
    "events": [
      "개학식: 8/16",
      "중간고사: 9/26~9/27 | 2,3학년",
      "기말고사: 11/1~11/3 | 3학년",
      "기말고사: 12/6~12/8 | 2학년",
      "종업/졸업식: 24.2/7 (겨울방학: 12/28~24.1/31)"
    ]
  },
  {
    "latitude": 35.852400,
    "longitude": 128.586360,
    "name": "경상중학교",
    "website": "https://kyungsang.dge.ms.kr",
    "events": [
      "개학식: 8/17",
      "중간고사: 9/21~9/22 | 2,3학년",
      "기말고사: 10/31~11/2 | 3학년",
      "기말고사: 12/5~12/7 | 2학년",
      "종업/졸업식: 24.2/7(겨울방학: 12/29~24.1/31)"
    ]
  },
  {
    "latitude": 35.867161,
    "longitude": 128.581208,
    "name": "계성중학교",
    "website": "https://keisung.dge.ms.kr",
    "events": [
      "개학식: 8/16",
      "중간고사: 9/26~6/27 | 2,3학년",
      "기말고사: 11/2~11/6 | 3학년",
      "기말고사: 12/6~12/8 | 2학년",
      "종업/졸업식: 24.2/6(겨울방학: 12/29~24.1/31)"
    ]
  }
];
